{
"type": "FeatureCollection",
"name": "peaks",
"crs": { "type": "name", "properties": { "name": "urn:ogc:def:crs:OGC:1.3:CRS84" } },
"features": [
{ "type": "Feature", "properties": { "Name": "Castle Peak", "FolderPath": "Peaks and Routes\/14ers\/Elk", "OBJECTID": 1, "Label": "Castle Pk.", "Range": "Elk Mountains", "Elevation": 14265, "Rank": 12, "Prominence": 2365, "Isolation": 20.89999961853027, "Popularity": 2000, "Routes": 4, "Difficulty": 2, "Rank_New": 9, "Elevation_NAVD88": 14279 }, "geometry": { "type": "Point", "coordinates": [ -106.8614, 39.0097, 0.0 ] } },
{ "type": "Feature", "properties": { "Name": "Maroon Peak", "FolderPath": "Peaks and Routes\/14ers\/Elk", "OBJECTID": 2, "Label": "Maroon Pk.", "Range": "Elk Mountains", "Elevation": 14156, "Rank": 24, "Prominence": 2336, "Isolation": 8.0600004196166992, "Popularity": 2000, "Routes": 1, "Difficulty": 3, "Rank_New": 24, "Elevation_NAVD88": 14163 }, "geometry": { "type": "Point", "coordinates": [ -106.989, 39.0708, 0.0 ] } },
{ "type": "Feature", "properties": { "Name": "Capitol Peak", "FolderPath": "Peaks and Routes\/14ers\/Elk", "OBJECTID": 3, "Label": "Capitol Pk.", "Range": "Elk Mountains", "Elevation": 14130, "Rank": 29, "Prominence": 1750, "Isolation": 7.440000057220459, "Popularity": 2000, "Routes": 1, "Difficulty": 4, "Rank_New": 29, "Elevation_NAVD88": 14137 }, "geometry": { "type": "Point", "coordinates": [ -107.0831, 39.1503, 0.0 ] } },
{ "type": "Feature", "properties": { "Name": "Snowmass Mountain", "FolderPath": "Peaks and Routes\/14ers\/Elk", "OBJECTID": 4, "Label": "Snowmass Mtn.", "Range": "Elk Mountains", "Elevation": 14092, "Rank": 31, "Prominence": 1152, "Isolation": 2.339999914169312, "Popularity": 2000, "Routes": 2, "Difficulty": 3, "Rank_New": 31, "Elevation_NAVD88": 14099 }, "geometry": { "type": "Point", "coordinates": [ -107.066528, 39.118809, 0.0 ] } },
{ "type": "Feature", "properties": { "Name": "Pyramid Peak", "FolderPath": "Peaks and Routes\/14ers\/Elk", "OBJECTID": 5, "Label": "Pyramid Pk.", "Range": "Elk Mountains", "Elevation": 14018, "Rank": 47, "Prominence": 1638, "Isolation": 2.089999914169312, "Popularity": 2000, "Routes": 1, "Difficulty": 4, "Rank_New": 47, "Elevation_NAVD88": 14025 }, "geometry": { "type": "Point", "coordinates": [ -106.950188, 39.071545, 0.0 ] } },
{ "type": "Feature", "properties": { "Name": "Grays Peak", "FolderPath": "Peaks and Routes\/14ers\/Front", "OBJECTID": 6, "Label": "Grays Pk.", "Range": "Front Range", "Elevation": 14270, "Rank": 9, "Prominence": 2770, "Isolation": 25.0, "Popularity": 22500, "Routes": 5, "Difficulty": 1, "Rank_New": 10, "Elevation_NAVD88": 14278 }, "geometry": { "type": "Point", "coordinates": [ -105.81752, 39.63382, 0.0 ] } },
{ "type": "Feature", "properties": { "Name": "Torreys Peak", "FolderPath": "Peaks and Routes\/14ers\/Front", "OBJECTID": 7, "Label": "Torreys Pk.", "Range": "Front Range", "Elevation": 14267, "Rank": 11, "Prominence": 560, "Isolation": 0.64999997615814209, "Popularity": 22500, "Routes": 6, "Difficulty": 2, "Rank_New": 12, "Elevation_NAVD88": 14275 }, "geometry": { "type": "Point", "coordinates": [ -105.821259, 39.642742, 0.0 ] } },
{ "type": "Feature", "properties": { "Name": "Mt. Evans", "FolderPath": "Peaks and Routes\/14ers\/Front", "OBJECTID": 8, "Label": "Mt. Evans", "Range": "Front Range", "Elevation": 14264, "Rank": 14, "Prominence": 2770, "Isolation": 9.7899999618530273, "Popularity": 12500, "Routes": 6, "Difficulty": 3, "Rank_New": 14, "Elevation_NAVD88": 14271 }, "geometry": { "type": "Point", "coordinates": [ -105.6438, 39.5883, 0.0 ] } },
{ "type": "Feature", "properties": { "Name": "Longs Peak", "FolderPath": "Peaks and Routes\/14ers\/Front", "OBJECTID": 9, "Label": "Longs Pk.", "Range": "Front Range", "Elevation": 14255, "Rank": 15, "Prominence": 2940, "Isolation": 43.599998474121087, "Popularity": 8500, "Routes": 1, "Difficulty": 3, "Rank_New": 15, "Elevation_NAVD88": 14259 }, "geometry": { "type": "Point", "coordinates": [ -105.616, 40.2549, 0.0 ] } },
{ "type": "Feature", "properties": { "Name": "Pikes Peak", "FolderPath": "Peaks and Routes\/14ers\/Front", "OBJECTID": 10, "Label": "Pikes Pk.", "Range": "Front Range", "Elevation": 14110, "Rank": 30, "Prominence": 5530, "Isolation": 60.799999237060547, "Popularity": 17500, "Routes": 1, "Difficulty": 2, "Rank_New": 30, "Elevation_NAVD88": 14115 }, "geometry": { "type": "Point", "coordinates": [ -105.0423, 38.8409, 0.0 ] } },
{ "type": "Feature", "properties": { "Name": "Mt. Bierstadt", "FolderPath": "Peaks and Routes\/14ers\/Front", "OBJECTID": 11, "Label": "Mt. Bierstadt", "Range": "Front Range", "Elevation": 14060, "Rank": 38, "Prominence": 720, "Isolation": 1.120000004768372, "Popularity": 22500, "Routes": 4, "Difficulty": 2, "Rank_New": 38, "Elevation_NAVD88": 14065 }, "geometry": { "type": "Point", "coordinates": [ -105.6686, 39.5828, 0.0 ] } },
{ "type": "Feature", "properties": { "Name": "Mt. Lincoln", "FolderPath": "Peaks and Routes\/14ers\/Mosquito", "OBJECTID": 12, "Label": "Mt. Lincoln", "Range": "Mosquito Range", "Elevation": 14286, "Rank": 8, "Prominence": 3862, "Isolation": 22.60000038146973, "Popularity": 17500, "Routes": 4, "Difficulty": 2, "Rank_New": 8, "Elevation_NAVD88": 14293 }, "geometry": { "type": "Point", "coordinates": [ -106.1114, 39.3514, 0.0 ] } },
{ "type": "Feature", "properties": { "Name": "Mt. Bross", "FolderPath": "Peaks and Routes\/14ers\/Mosquito", "OBJECTID": 13, "Label": "Mt. Bross", "Range": "Mosquito Range", "Elevation": 14172, "Rank": 22, "Prominence": 312, "Isolation": 0.99000000953674316, "Popularity": 17500, "Routes": 5, "Difficulty": 1, "Rank_New": 22, "Elevation_NAVD88": 14178 }, "geometry": { "type": "Point", "coordinates": [ -106.1075, 39.3353, 0.0 ] } },
{ "type": "Feature", "properties": { "Name": "Mt. Democrat", "FolderPath": "Peaks and Routes\/14ers\/Mosquito", "OBJECTID": 14, "Label": "Mt. Democrat", "Range": "Mosquito Range", "Elevation": 14148, "Rank": 28, "Prominence": 768, "Isolation": 1.2699999809265139, "Popularity": 17500, "Routes": 3, "Difficulty": 2, "Rank_New": 28, "Elevation_NAVD88": 14155 }, "geometry": { "type": "Point", "coordinates": [ -106.139946, 39.339542, 0.0 ] } },
{ "type": "Feature", "properties": { "Name": "Mt. Sherman", "FolderPath": "Peaks and Routes\/14ers\/Mosquito", "OBJECTID": 15, "Label": "Mt. Sherman", "Range": "Mosquito Range", "Elevation": 14036, "Rank": 45, "Prominence": 850, "Isolation": 8.0600004196166992, "Popularity": 17500, "Routes": 3, "Difficulty": 2, "Rank_New": 45, "Elevation_NAVD88": 14043 }, "geometry": { "type": "Point", "coordinates": [ -106.169945, 39.225006, 0.0 ] } },
{ "type": "Feature", "properties": { "Name": "Uncompahgre Peak", "FolderPath": "Peaks and Routes\/14ers\/San Juan", "OBJECTID": 16, "Label": "Uncompahgre Pk.", "Range": "San Juan Mountains", "Elevation": 14309, "Rank": 6, "Prominence": 4277, "Isolation": 85.099998474121094, "Popularity": 4000, "Routes": 1, "Difficulty": 2, "Rank_New": 6, "Elevation_NAVD88": 14321 }, "geometry": { "type": "Point", "coordinates": [ -107.462, 38.0717, 0.0 ] } },
{ "type": "Feature", "properties": { "Name": "Mt. Wilson", "FolderPath": "Peaks and Routes\/14ers\/San Juan", "OBJECTID": 17, "Label": "Mt. Wilson", "Range": "San Juan Mountains", "Elevation": 14246, "Rank": 16, "Prominence": 4024, "Isolation": 33.099998474121087, "Popularity": 2000, "Routes": 4, "Difficulty": 3, "Rank_New": 16, "Elevation_NAVD88": 14252 }, "geometry": { "type": "Point", "coordinates": [ -107.99157, 37.83931, 0.0 ] } },
{ "type": "Feature", "properties": { "Name": "Mt. Sneffels", "FolderPath": "Peaks and Routes\/14ers\/San Juan", "OBJECTID": 18, "Label": "Mt. Sneffels", "Range": "San Juan Mountains", "Elevation": 14150, "Rank": 27, "Prominence": 3050, "Isolation": 15.72999954223633, "Popularity": 6000, "Routes": 2, "Difficulty": 3, "Rank_New": 27, "Elevation_NAVD88": 14158 }, "geometry": { "type": "Point", "coordinates": [ -107.792229, 38.003605, 0.0 ] } },
{ "type": "Feature", "properties": { "Name": "Mt. Eolus", "FolderPath": "Peaks and Routes\/14ers\/San Juan", "OBJECTID": 19, "Label": "Mt. Eolus", "Range": "San Juan Mountains", "Elevation": 14083, "Rank": 32, "Prominence": 1024, "Isolation": 1.690000057220459, "Popularity": 2000, "Routes": 1, "Difficulty": 3, "Rank_New": 33, "Elevation_NAVD88": 14090 }, "geometry": { "type": "Point", "coordinates": [ -107.622498, 37.621948, 0.0 ] } },
{ "type": "Feature", "properties": { "Name": "Windom Peak", "FolderPath": "Peaks and Routes\/14ers\/San Juan", "OBJECTID": 20, "Label": "Windom Pk.", "Range": "San Juan Mountains", "Elevation": 14082, "Rank": 33, "Prominence": 2187, "Isolation": 26.39999961853027, "Popularity": 2000, "Routes": 1, "Difficulty": 2, "Rank_New": 32, "Elevation_NAVD88": 14093 }, "geometry": { "type": "Point", "coordinates": [ -107.591774, 37.621235, 0.0 ] } },
{ "type": "Feature", "properties": { "Name": "Sunlight Peak", "FolderPath": "Peaks and Routes\/14ers\/San Juan", "OBJECTID": 21, "Label": "Sunlight Pk.", "Range": "San Juan Mountains", "Elevation": 14059, "Rank": 39, "Prominence": 399, "Isolation": 0.47999998927116388, "Popularity": 2000, "Routes": 1, "Difficulty": 4, "Rank_New": 39, "Elevation_NAVD88": 14065 }, "geometry": { "type": "Point", "coordinates": [ -107.5959, 37.6272, 0.0 ] } },
{ "type": "Feature", "properties": { "Name": "Handies Peak", "FolderPath": "Peaks and Routes\/14ers\/San Juan", "OBJECTID": 22, "Label": "Handies Pk.", "Range": "San Juan Mountains", "Elevation": 14048, "Rank": 40, "Prominence": 1908, "Isolation": 11.180000305175779, "Popularity": 4000, "Routes": 3, "Difficulty": 1, "Rank_New": 40, "Elevation_NAVD88": 14058 }, "geometry": { "type": "Point", "coordinates": [ -107.504478, 37.913021, 0.0 ] } },
{ "type": "Feature", "properties": { "Name": "Redcloud Peak", "FolderPath": "Peaks and Routes\/14ers\/San Juan", "OBJECTID": 23, "Label": "Redcloud Pk.", "Range": "San Juan Mountains", "Elevation": 14034, "Rank": 46, "Prominence": 1436, "Isolation": 4.9099998474121094, "Popularity": 4000, "Routes": 2, "Difficulty": 2, "Rank_New": 46, "Elevation_NAVD88": 14041 }, "geometry": { "type": "Point", "coordinates": [ -107.421737461999953, 37.94095980000003, 0.0 ] } },
{ "type": "Feature", "properties": { "Name": "Wilson Peak", "FolderPath": "Peaks and Routes\/14ers\/San Juan", "OBJECTID": 24, "Label": "Wilson Pk.", "Range": "San Juan Mountains", "Elevation": 14017, "Rank": 48, "Prominence": 857, "Isolation": 1.5099999904632571, "Popularity": 4000, "Routes": 1, "Difficulty": 3, "Rank_New": 48, "Elevation_NAVD88": 14023 }, "geometry": { "type": "Point", "coordinates": [ -107.9848, 37.8603, 0.0 ] } },
{ "type": "Feature", "properties": { "Name": "Wetterhorn Peak", "FolderPath": "Peaks and Routes\/14ers\/San Juan", "OBJECTID": 25, "Label": "Wetterhorn Pk.", "Range": "San Juan Mountains", "Elevation": 14015, "Rank": 49, "Prominence": 1635, "Isolation": 2.7699999809265141, "Popularity": 4000, "Routes": 2, "Difficulty": 3, "Rank_New": 50, "Elevation_NAVD88": 14021 }, "geometry": { "type": "Point", "coordinates": [ -107.5109, 38.0606, 0.0 ] } },
{ "type": "Feature", "properties": { "Name": "San Luis Peak", "FolderPath": "Peaks and Routes\/14ers\/San Juan", "OBJECTID": 26, "Label": "San Luis Pk.", "Range": "San Juan Mountains", "Elevation": 14014, "Rank": 50, "Prominence": 3113, "Isolation": 27.0, "Popularity": 2000, "Routes": 1, "Difficulty": 1, "Rank_New": 49, "Elevation_NAVD88": 14022 }, "geometry": { "type": "Point", "coordinates": [ -106.9314, 37.9869, 0.0 ] } },
{ "type": "Feature", "properties": { "Name": "Sunshine Peak", "FolderPath": "Peaks and Routes\/14ers\/San Juan", "OBJECTID": 27, "Label": "Sunshine Pk.", "Range": "San Juan Mountains", "Elevation": 14001, "Rank": 53, "Prominence": 501, "Isolation": 1.2699999809265139, "Popularity": 4000, "Routes": 3, "Difficulty": 2, "Rank_New": 53, "Elevation_NAVD88": 14007 }, "geometry": { "type": "Point", "coordinates": [ -107.425560028999939, 37.922786744000064, 0.0 ] } },
{ "type": "Feature", "properties": { "Name": "Blanca Peak", "FolderPath": "Peaks and Routes\/14ers\/Sangre de Cristo", "OBJECTID": 28, "Label": "Blanca Pk.", "Range": "Sangre de Cristo Range", "Elevation": 14345, "Rank": 4, "Prominence": 5326, "Isolation": 103.40000152587891, "Popularity": 2000, "Routes": 2, "Difficulty": 2, "Rank_New": 4, "Elevation_NAVD88": 14351 }, "geometry": { "type": "Point", "coordinates": [ -105.485443, 37.577473, 0.0 ] } },
{ "type": "Feature", "properties": { "Name": "Crestone Peak", "FolderPath": "Peaks and Routes\/14ers\/Sangre de Cristo", "OBJECTID": 29, "Label": "Crestone Pk.", "Range": "Sangre de Cristo Range", "Elevation": 14294, "Rank": 7, "Prominence": 4554, "Isolation": 27.39999961853027, "Popularity": 2000, "Routes": 1, "Difficulty": 3, "Rank_New": 7, "Elevation_NAVD88": 14300 }, "geometry": { "type": "Point", "coordinates": [ -105.585304, 37.966972, 0.0 ] } },
{ "type": "Feature", "properties": { "Name": "Crestone Needle", "FolderPath": "Peaks and Routes\/14ers\/Sangre de Cristo", "OBJECTID": 30, "Label": "Crestone Ndl.", "Range": "Sangre de Cristo Range", "Elevation": 14197, "Rank": 19, "Prominence": 457, "Isolation": 0.44999998807907099, "Popularity": 2000, "Routes": 2, "Difficulty": 3, "Rank_New": 20, "Elevation_NAVD88": 14203 }, "geometry": { "type": "Point", "coordinates": [ -105.5767, 37.9647, 0.0 ] } },
{ "type": "Feature", "properties": { "Name": "Kit Carson Peak", "FolderPath": "Peaks and Routes\/14ers\/Sangre de Cristo", "OBJECTID": 31, "Label": "Kit Carson Pk.", "Range": "Sangre de Cristo Range", "Elevation": 14165, "Rank": 23, "Prominence": 1025, "Isolation": 1.2699999809265139, "Popularity": 2000, "Routes": 3, "Difficulty": 3, "Rank_New": 23, "Elevation_NAVD88": 14171 }, "geometry": { "type": "Point", "coordinates": [ -105.602562, 37.979759, 0.0 ] } },
{ "type": "Feature", "properties": { "Name": "Challenger Point", "FolderPath": "Peaks and Routes\/14ers\/Sangre de Cristo", "OBJECTID": 32, "Label": "Challenger Pt.", "Range": "Sangre de Cristo Range", "Elevation": 14081, "Rank": 34, "Prominence": 301, "Isolation": 0.2199999988079071, "Popularity": 2000, "Routes": 3, "Difficulty": 2, "Rank_New": 34, "Elevation_NAVD88": 14087 }, "geometry": { "type": "Point", "coordinates": [ -105.6067, 37.9803, 0.0 ] } },
{ "type": "Feature", "properties": { "Name": "Humboldt Peak", "FolderPath": "Peaks and Routes\/14ers\/Sangre de Cristo", "OBJECTID": 33, "Label": "Humboldt Pk.", "Range": "Sangre de Cristo Range", "Elevation": 14064, "Rank": 37, "Prominence": 1204, "Isolation": 1.4099999666213989, "Popularity": 4000, "Routes": 3, "Difficulty": 2, "Rank_New": 37, "Elevation_NAVD88": 14070 }, "geometry": { "type": "Point", "coordinates": [ -105.5553, 37.9761, 0.0 ] } },
{ "type": "Feature", "properties": { "Name": "Culebra Peak", "FolderPath": "Peaks and Routes\/14ers\/Sangre de Cristo", "OBJECTID": 34, "Label": "Culebra Pk.", "Range": "Sangre de Cristo Range", "Elevation": 14047, "Rank": 41, "Prominence": 4827, "Isolation": 35.5, "Popularity": 2000, "Routes": 1, "Difficulty": 2, "Rank_New": 41, "Elevation_NAVD88": 14053 }, "geometry": { "type": "Point", "coordinates": [ -105.1856, 37.1222, 0.0 ] } },
{ "type": "Feature", "properties": { "Name": "Ellingwood Point", "FolderPath": "Peaks and Routes\/14ers\/Sangre de Cristo", "OBJECTID": 35, "Label": "Ellingwood Pt.", "Range": "Sangre de Cristo Range", "Elevation": 14042, "Rank": 42, "Prominence": 342, "Isolation": 0.51999998092651367, "Popularity": 2000, "Routes": 3, "Difficulty": 2, "Rank_New": 42, "Elevation_NAVD88": 14048 }, "geometry": { "type": "Point", "coordinates": [ -105.492569, 37.582508, 0.0 ] } },
{ "type": "Feature", "properties": { "Name": "Mt. Lindsey", "FolderPath": "Peaks and Routes\/14ers\/Sangre de Cristo", "OBJECTID": 36, "Label": "Mt. Lindsey", "Range": "Sangre de Cristo Range", "Elevation": 14042, "Rank": 43, "Prominence": 1542, "Isolation": 2.2599999904632568, "Popularity": 2000, "Routes": 3, "Difficulty": 3, "Rank_New": 43, "Elevation_NAVD88": 14048 }, "geometry": { "type": "Point", "coordinates": [ -105.444763, 37.583801, 0.0 ] } },
{ "type": "Feature", "properties": { "Name": "Little Bear Peak", "FolderPath": "Peaks and Routes\/14ers\/Sangre de Cristo", "OBJECTID": 37, "Label": "Little Bear Pk.", "Range": "Sangre de Cristo Range", "Elevation": 14037, "Rank": 44, "Prominence": 377, "Isolation": 0.98000001907348633, "Popularity": 2000, "Routes": 1, "Difficulty": 4, "Rank_New": 44, "Elevation_NAVD88": 14043 }, "geometry": { "type": "Point", "coordinates": [ -105.4972, 37.5667, 0.0 ] } },
{ "type": "Feature", "properties": { "Name": "Mt. Elbert", "FolderPath": "Peaks and Routes\/14ers\/Sawatch", "OBJECTID": 38, "Label": "Mt. Elbert", "Range": "Sawatch Range", "Elevation": 14433, "Rank": 1, "Prominence": 9093, "Isolation": 671.0, "Popularity": 27500, "Routes": 4, "Difficulty": 1, "Rank_New": 1, "Elevation_NAVD88": 14440 }, "geometry": { "type": "Point", "coordinates": [ -106.445331, 39.117784, 0.0 ] } },
{ "type": "Feature", "properties": { "Name": "Mt. Massive", "FolderPath": "Peaks and Routes\/14ers\/Sawatch", "OBJECTID": 39, "Label": "Mt. Massive", "Range": "Sawatch Range", "Elevation": 14421, "Rank": 2, "Prominence": 1961, "Isolation": 5.059999942779541, "Popularity": 8500, "Routes": 3, "Difficulty": 2, "Rank_New": 2, "Elevation_NAVD88": 14428 }, "geometry": { "type": "Point", "coordinates": [ -106.475548, 39.187298, 0.0 ] } },
{ "type": "Feature", "properties": { "Name": "Mt. Harvard", "FolderPath": "Peaks and Routes\/14ers\/Sawatch", "OBJECTID": 40, "Label": "Mt. Harvard", "Range": "Sawatch Range", "Elevation": 14420, "Rank": 3, "Prominence": 2360, "Isolation": 14.930000305175779, "Popularity": 6000, "Routes": 3, "Difficulty": 2, "Rank_New": 3, "Elevation_NAVD88": 14421 }, "geometry": { "type": "Point", "coordinates": [ -106.3206, 38.9244, 0.0 ] } },
{ "type": "Feature", "properties": { "Name": "La Plata Peak", "FolderPath": "Peaks and Routes\/14ers\/Sawatch", "OBJECTID": 41, "Label": "La Plata Pk.", "Range": "Sawatch Range", "Elevation": 14336, "Rank": 5, "Prominence": 1836, "Isolation": 6.2800002098083496, "Popularity": 6000, "Routes": 1, "Difficulty": 2, "Rank_New": 5, "Elevation_NAVD88": 14343 }, "geometry": { "type": "Point", "coordinates": [ -106.472984225999937, 39.029482026000039, 0.0 ] } },
{ "type": "Feature", "properties": { "Name": "Mt. Antero", "FolderPath": "Peaks and Routes\/14ers\/Sawatch", "OBJECTID": 42, "Label": "Mt. Antero", "Range": "Sawatch Range", "Elevation": 14269, "Rank": 10, "Prominence": 2503, "Isolation": 17.75, "Popularity": 4000, "Routes": 1, "Difficulty": 2, "Rank_New": 11, "Elevation_NAVD88": 14276 }, "geometry": { "type": "Point", "coordinates": [ -106.246201, 38.674088, 0.0 ] } },
{ "type": "Feature", "properties": { "Name": "Mt. Shavano", "FolderPath": "Peaks and Routes\/14ers\/Sawatch", "OBJECTID": 43, "Label": "Mt. Shavano", "Range": "Sawatch Range", "Elevation": 14229, "Rank": 17, "Prominence": 1619, "Isolation": 3.779999971389771, "Popularity": 4000, "Routes": 3, "Difficulty": 2, "Rank_New": 17, "Elevation_NAVD88": 14231 }, "geometry": { "type": "Point", "coordinates": [ -106.239296, 38.619083, 0.0 ] } },
{ "type": "Feature", "properties": { "Name": "Mt. Princeton", "FolderPath": "Peaks and Routes\/14ers\/Sawatch", "OBJECTID": 44, "Label": "Mt. Princeton", "Range": "Sawatch Range", "Elevation": 14197, "Rank": 20, "Prominence": 2177, "Isolation": 5.190000057220459, "Popularity": 12500, "Routes": 1, "Difficulty": 2, "Rank_New": 18, "Elevation_NAVD88": 14204 }, "geometry": { "type": "Point", "coordinates": [ -106.24240885599994, 38.749200815000052, 0.0 ] } },
{ "type": "Feature", "properties": { "Name": "Mt. Belford", "FolderPath": "Peaks and Routes\/14ers\/Sawatch", "OBJECTID": 45, "Label": "Mt. Belford", "Range": "Sawatch Range", "Elevation": 14197, "Rank": 18, "Prominence": 1337, "Isolation": 3.2999999523162842, "Popularity": 8500, "Routes": 2, "Difficulty": 2, "Rank_New": 19, "Elevation_NAVD88": 14203 }, "geometry": { "type": "Point", "coordinates": [ -106.36074014899998, 38.960668780000049, 0.0 ] } },
{ "type": "Feature", "properties": { "Name": "Mt. Yale", "FolderPath": "Peaks and Routes\/14ers\/Sawatch", "OBJECTID": 46, "Label": "Mt. Yale", "Range": "Sawatch Range", "Elevation": 14196, "Rank": 21, "Prominence": 1896, "Isolation": 5.5500001907348633, "Popularity": 8500, "Routes": 2, "Difficulty": 2, "Rank_New": 21, "Elevation_NAVD88": 14200 }, "geometry": { "type": "Point", "coordinates": [ -106.3139, 38.8442, 0.0 ] } },
{ "type": "Feature", "properties": { "Name": "Tabeguache Peak", "FolderPath": "Peaks and Routes\/14ers\/Sawatch", "OBJECTID": 47, "Label": "Tabeguache Pk.", "Range": "Sawatch Range", "Elevation": 14155, "Rank": 25, "Prominence": 455, "Isolation": 0.75, "Popularity": 4000, "Routes": 2, "Difficulty": 2, "Rank_New": 25, "Elevation_NAVD88": 14162 }, "geometry": { "type": "Point", "coordinates": [ -106.25071, 38.625622, 0.0 ] } },
{ "type": "Feature", "properties": { "Name": "Mt. Oxford", "FolderPath": "Peaks and Routes\/14ers\/Sawatch", "OBJECTID": 48, "Label": "Mt. Oxford", "Range": "Sawatch Range", "Elevation": 14153, "Rank": 26, "Prominence": 653, "Isolation": 1.220000028610229, "Popularity": 8500, "Routes": 1, "Difficulty": 2, "Rank_New": 26, "Elevation_NAVD88": 14160 }, "geometry": { "type": "Point", "coordinates": [ -106.3389, 38.9647, 0.0 ] } },
{ "type": "Feature", "properties": { "Name": "Mt. Columbia", "FolderPath": "Peaks and Routes\/14ers\/Sawatch", "OBJECTID": 49, "Label": "Mt. Columbia", "Range": "Sawatch Range", "Elevation": 14073, "Rank": 35, "Prominence": 893, "Isolation": 1.8999999761581421, "Popularity": 4000, "Routes": 3, "Difficulty": 2, "Rank_New": 35, "Elevation_NAVD88": 14077 }, "geometry": { "type": "Point", "coordinates": [ -106.2975, 38.9039, 0.0 ] } },
{ "type": "Feature", "properties": { "Name": "Missouri Mountain", "FolderPath": "Peaks and Routes\/14ers\/Sawatch", "OBJECTID": 50, "Label": "Missouri Mtn.", "Range": "Sawatch Range", "Elevation": 14067, "Rank": 36, "Prominence": 847, "Isolation": 1.309999942779541, "Popularity": 6000, "Routes": 3, "Difficulty": 2, "Rank_New": 36, "Elevation_NAVD88": 14074 }, "geometry": { "type": "Point", "coordinates": [ -106.378471, 38.947559, 0.0 ] } },
{ "type": "Feature", "properties": { "Name": "Mt. of the Holy Cross", "FolderPath": "Peaks and Routes\/14ers\/Sawatch", "OBJECTID": 51, "Label": "Mt. of the Holy Cross", "Range": "Sawatch Range", "Elevation": 14005, "Rank": 51, "Prominence": 2113, "Isolation": 18.520000457763668, "Popularity": 6000, "Routes": 2, "Difficulty": 2, "Rank_New": 51, "Elevation_NAVD88": 14011 }, "geometry": { "type": "Point", "coordinates": [ -106.481766, 39.466713, 0.0 ] } },
{ "type": "Feature", "properties": { "Name": "Huron Peak", "FolderPath": "Peaks and Routes\/14ers\/Sawatch", "OBJECTID": 52, "Label": "Huron Pk.", "Range": "Sawatch Range", "Elevation": 14003, "Rank": 52, "Prominence": 1423, "Isolation": 3.2100000381469731, "Popularity": 12500, "Routes": 3, "Difficulty": 2, "Rank_New": 52, "Elevation_NAVD88": 14010 }, "geometry": { "type": "Point", "coordinates": [ -106.438126, 38.945423, 0.0 ] } },
{ "type": "Feature", "properties": { "Name": "Quandary Peak", "FolderPath": "Peaks and Routes\/14ers\/Tenmile", "OBJECTID": 53, "Label": "Quandary Pk.", "Range": "Tenmile Range", "Elevation": 14265, "Rank": 13, "Prominence": 1125, "Isolation": 3.160000085830688, "Popularity": 17500, "Routes": 4, "Difficulty": 1, "Rank_New": 13, "Elevation_NAVD88": 14271 }, "geometry": { "type": "Point", "coordinates": [ -106.10643, 39.397236, 0.0 ] } }
]
}
